{"meta":{"code":200,"requestId":"569cd31f498e5d37a851c747"},"response":{"venues":[{"id":"4c2473a1f1272d7f9c0d83c5","name":"Sandown Park Racecourse","contact":{"phone":"+441372464348","formattedPhone":"+44 1372 464348","twitter":"sandownpark"},"location":{"address":"Portsmouth Road","lat":51.373280620643364,"lng":-0.3618192672729492,"distance":29208,"postalCode":"KT10 9AJ","cc":"GB","city":"Esher","state":"Surrey","country":"United Kingdom","formattedAddress":["Portsmouth Road","Esher","Surrey","KT10 9AJ","United Kingdom"]},"categories":[{"id":"4bf58dd8d48988d1f4931735","name":"Racetrack","pluralName":"Racetracks","shortName":"Racetrack","icon":{"prefix":"https:\/\/ss3.4sqi.net\/img\/categories_v2\/arts_entertainment\/racetrack_","suffix":".png"},"primary":true}],"verified":false,"stats":{"checkinsCount":1553,"usersCount":1129,"tipCount":8},"specials":{"count":0,"items":[]},"hereNow":{"count":0,"summary":"Nobody here","groups":[]},"referralId":"v-1453118240","venueChains":[]},{"id":"4e105f1dcc3fd30182763b81","name":"Racecourse Association","contact":{},"location":{"address":"75 High Holborn","lat":51.51779635241522,"lng":-0.11784553527832031,"distance":5863,"postalCode":"WC1V 6LS.","cc":"GB","city":"London","state":"Greater London","country":"United Kingdom","formattedAddress":["75 High Holborn","London","Greater London","WC1V 6LS.","United Kingdom"]},"categories":[{"id":"4bf58dd8d48988d124941735","name":"Office","pluralName":"Offices","shortName":"Office","icon":{"prefix":"https:\/\/ss3.4sqi.net\/img\/categories_v2\/building\/default_","suffix":".png"},"primary":true}],"verified":false,"stats":{"checkinsCount":5,"usersCount":5,"tipCount":0},"specials":{"count":0,"items":[]},"hereNow":{"count":0,"summary":"Nobody here","groups":[]},"referralId":"v-1453118240","venueChains":[]}]}}